 RADAR_ALT    ,ALT          ,PITCH_ATT    ,MAG_HEADING  ,ROLL_ATT     ,PITCH RATE   ,ROLL RATE    ,RATE_OF_CLIMB,LONG_CYC_POS ,PEDAL_POS    ,PWR_LEVER    ,LAT_CYC_POS  ,LTM_CMD_POS  ,FLAP_POS     ,RTR2_MAST_TRQ,RTR1_MAST_TRQ,PYL1_CONV_POS,IND_AIRSPEED ,ROTOR2_SPEED ,MSTR_CAUTION ,DGPS_TIME    ,DGPS_LAT     ,DGPS_LON     ,DGPS_HEIGHT  ,DGPS_SOG     ,DGPS_COG     ,DGPS_PDOP    ,DGPS_AGE_DATA,DGPS_ROC     ,
     3.,  696., -1.01, -12.28,   2.40,  0.207,  0.402,   -2., 59.62, 51.60, 21.30, 51.10,  -0.03, 1.3,  -187.,   325.,90.1, 18.7,  0.9,1.,185119.00,  3240.06,  9705.90, 191.7,  0.1, 271.05,  1.90,  2., -0.032
     3.,  747., -1.01, -12.28,   2.40,  0.004,  0.611,   -2., 59.74, 51.45, 21.05, 50.76,   0.19, 1.2,   322.,  -115.,90.2, 10.9,  0.9,1.,185119.00,  3240.06,  9705.90, 191.7,  0.1, 271.05,  1.90,  2., -0.032
     3.,  713., -1.01, -12.28,   2.40,  0.207,  0.402,   -8., 59.62, 51.60, 21.30, 51.10,  -0.03, 1.2,    67.,   105.,90.1, 18.7,  0.9,1.,185119.00,  3240.06,  9705.90, 191.7,  0.1, 271.05,  1.90,  2., -0.032
     3.,  747., -1.01, -12.28,   2.40,  0.105,  0.611,   -2., 59.74, 51.60, 21.05, 50.76,   0.19, 1.2,   322.,  -115.,90.2, 10.9,  0.9,1.,185119.00,  3240.06,  9705.90, 191.7,  0.1, 271.05,  1.90,  2., -0.032
     1.,  696., -1.01, -12.28,   2.40,  0.207,  0.402,   -2., 59.62, 51.60, 21.30, 51.10,  -0.03, 1.2,    67.,   105.,90.1, 18.7,  1.0,1.,185119.00,  3240.06,  9705.90, 191.7,  0.1, 271.05,  1.90,  2., -0.032
     3.,  747., -1.01, -12.28,   2.40,  0.105,  0.611,   -2., 59.74, 51.60, 21.05, 50.93,   0.19, 1.2,   322.,  -115.,90.2, 10.9,  0.9,1.,185119.00,  3240.06,  9705.90, 191.7,  0.1, 271.05,  1.90,  2., -0.032
     1.,  696., -1.01, -12.28,   2.40,  0.207,  0.402,   -2., 59.62, 51.60, 21.30, 51.10,   0.19, 1.3,    67.,   105.,90.2, 18.7,  0.9,1.,185119.00,  3240.06,  9705.90, 191.7,  0.1, 271.05,  1.90,  2., -0.032
     3.,  747., -1.01, -12.28,   2.40,  0.004,  0.611,   -2., 59.74, 51.45, 21.05, 50.76,   0.19, 1.2,   322.,  -115.,90.4, 10.9,  0.9,1.,185119.00,  3240.06,  9705.90, 191.7,  0.1, 271.05,  1.90,  2., -0.032
     1.,  696., -1.01, -12.28,   2.40,  0.207,  0.402,   -2., 59.62, 51.60, 21.30, 51.10,  -0.03, 1.2,    67.,   105.,90.1, 18.7,  0.9,1.,185119.00,  3240.06,  9705.90, 191.7,  0.1, 271.05,  1.90,  2., -0.032
     3.,  747., -1.01, -12.28,   2.40,  0.105,  0.611,    4., 59.74, 51.45, 21.05, 50.93,   0.19, 1.2,   322.,  -115.,90.2, 15.3,  0.9,1.,185119.00,  3240.06,  9705.90, 191.7,  0.1, 271.05,  1.90,  2., -0.032
     1.,  713., -1.01, -12.28,   2.40,  0.207,  0.402,   -2., 59.62, 51.60, 21.30, 51.10,  -0.03, 1.2,    67.,   105.,90.2, 18.7,  0.9,1.,185119.00,  3240.06,  9705.90, 191.7,  0.1, 271.05,  1.90,  2., -0.032
     3.,  747., -1.01, -12.28,   2.40,  0.105,  0.611,    4., 59.74, 51.45, 21.05, 50.93,   0.19, 1.2,   322.,  -115.,90.2, 15.3,  0.9,1.,185119.00,  3240.06,  9705.90, 191.7,  0.1, 271.05,  1.90,  2., -0.032
     1.,  696., -1.01, -12.28,   2.40,  0.105,  0.402,   -2., 59.62, 51.76, 21.30, 51.10,   0.19, 1.2,    67.,   105.,90.1, 18.7,  1.0,1.,185119.00,  3240.06,  9705.90, 191.7,  0.1, 271.05,  1.90,  2., -0.032
     3.,  730., -1.01, -12.28,   2.40,  0.004,  0.611,    4., 59.74, 51.60, 21.05, 50.93,   0.19, 1.2,   322.,  -115.,90.2, 15.3,  0.9,1.,185119.00,  3240.06,  9705.90, 191.7,  0.1, 271.05,  1.90,  2., -0.032
   650., 1265., 10.82, -23.16,   0.70, -0.098, -0.640,  -44., 42.08, 40.42, 45.25, 48.03,  -0.26, 2.7, 59422., 75048., 0.1,138.4, 98.9,0.,193049.00,  3228.10,  9702.84, 386.1,136.5, 345.90,  6.40,  2., -0.004
   645., 1265., 10.82, -23.16,   0.57,  0.105, -0.223,   -8., 41.72, 40.11, 45.38, 48.03,  -0.48, 2.8, 63243., 73070., 0.1,138.8, 98.9,0.,193049.00,  3228.10,  9702.84, 386.1,136.5, 345.90,  6.40,  2., -0.004
   653., 1265., 10.82, -22.81,   0.57, -0.200, -0.223,   22., 42.08, 40.57, 45.25, 48.03,  -0.48, 2.7, 63753., 72410., 0.1,138.4, 99.0,0.,193049.00,  3228.10,  9702.84, 386.1,136.5, 345.90,  6.40,  2., -0.004
   645., 1265., 10.82, -22.81,   0.57,  0.004, -0.223,   52., 41.84, 39.96, 45.38, 48.03,  -0.48, 2.8, 62734., 71092., 0.1,138.8, 98.7,0.,193049.00,  3228.10,  9702.84, 386.1,136.5, 345.90,  6.40,  2., -0.004
   653., 1265., 10.69, -22.81,   0.57, -0.200, -0.015,   75., 42.08, 40.11, 45.25, 47.86,  -0.48, 2.7, 63498., 71971., 0.1,138.0, 98.9,0.,193049.00,  3228.10,  9702.84, 386.1,136.5, 345.90,  6.40,  2., -0.004
   647., 1265., 10.69, -22.81,   0.44,  0.004, -0.015,   87., 41.84, 39.96, 45.38, 48.03,  -0.48, 2.7, 64007., 73509., 0.1,138.8, 98.9,0.,193049.00,  3228.10,  9702.84, 386.1,136.5, 345.90,  6.40,  2., -0.004
   653., 1265., 10.69, -22.81,   0.44, -0.200,  0.402,   93., 42.08, 40.11, 45.12, 47.86,  -0.48, 2.7, 61205., 69773., 0.1,138.4, 98.9,0.,193049.00,  3228.10,  9702.84, 386.1,136.5, 345.90,  6.40,  2., -0.004
   653., 1248., 10.69, -22.81,   0.44,  0.004,  0.402,   99., 41.84, 39.96, 45.38, 48.03,  -0.48, 2.7, 67574., 72630., 0.0,139.2, 98.7,0.,193049.00,  3228.10,  9702.84, 386.1,136.5, 345.90,  6.40,  2., -0.004
   658., 1265., 10.57, -22.46,   0.44, -0.200,  0.611,   99., 42.08, 40.11, 45.12, 47.86,  -0.26, 2.7, 67574., 66477., 0.1,138.4, 98.7,0.,193049.00,  3228.10,  9702.84, 386.1,136.5, 345.90,  6.40,  2., -0.004
   650., 1248., 10.57, -22.81,   0.44, -0.098, -0.015,  111., 41.84, 39.96, 45.38, 48.03,  -0.48, 2.8, 64772., 72410., 0.0,139.2, 98.7,0.,193049.00,  3228.10,  9702.84, 386.1,136.5, 345.90,  6.40,  2., -0.004
   653., 1265., 10.57, -22.81,   0.44, -0.301,  0.402,  117., 42.08, 39.96, 45.25, 48.03,  -0.26, 2.7, 67064., 70872., 0.1,138.0, 98.7,0.,193049.00,  3228.10,  9702.84, 386.1,136.5, 345.90,  6.40,  2., -0.004
   650., 1248., 10.57, -22.81,   0.44, -0.200, -0.015,  111., 42.08, 40.27, 45.38, 48.54,  -0.48, 2.8, 63243., 67356., 0.0,139.2, 98.6,0.,193049.00,  3228.10,  9702.84, 386.1,136.5, 345.90,  6.40,  2., -0.004
   655., 1265., 10.44, -22.81,   0.44, -0.301,  0.194,   87., 42.44, 40.73, 45.25, 48.54,  -0.26, 2.7, 60696., 71092., 0.1,138.8, 98.6,0.,193049.00,  3228.10,  9702.84, 386.1,136.5, 345.90,  6.40,  2., -0.004
   653., 1248., 10.44, -22.46,   0.44,  0.004, -0.015,   52., 42.56, 39.96, 45.38, 48.71,  -0.48, 2.7, 56620., 75927., 0.0,140.0, 98.6,0.,193050.00,  3228.14,  9702.85, 382.1,136.7, 345.93,  1.70,  2., -4.088
   655., 1265., 10.44, -22.81,   0.31, -0.098, -0.015,   16., 42.81, 40.73, 45.25, 48.54,  -0.26, 2.7, 55091., 71531., 0.1,139.2, 98.6,0.,193050.00,  3228.14,  9702.85, 382.1,136.7, 345.93,  1.70,  2., -4.088
   650., 1231., 10.44, -22.81,   0.31,  0.004, -0.015,  -20., 42.69, 40.42, 45.38, 48.71,  -0.48, 2.8, 60696., 71312., 0.0,140.0, 98.6,0.,193050.00,  3228.14,  9702.85, 382.1,136.7, 345.93,  1.70,  2., -4.088
   653., 1282., 10.31, -22.81,   0.31, -0.098,  0.402,  -38., 42.69, 39.81, 45.25, 48.20,  -0.26, 2.7, 62734., 70872., 0.1,139.6, 98.7,0.,193050.00,  3228.14,  9702.85, 382.1,136.7, 345.93,  1.70,  2., -4.088
   650., 1231., 10.31, -22.81,   0.31,  0.004, -0.223,  -62., 42.56, 39.96, 45.51, 48.03,  -0.48, 2.8, 57894., 65378., 0.0,141.2, 98.7,0.,193050.00,  3228.14,  9702.85, 382.1,136.7, 345.93,  1.70,  2., -4.088
   653., 1282., 10.31, -22.81,   0.31, -0.098, -0.223,  -80., 42.69, 39.96, 45.25, 47.69,  -0.26, 2.7, 62224., 74828., 0.1,140.0, 98.7,0.,193050.00,  3228.14,  9702.85, 382.1,136.7, 345.93,  1.70,  2., -4.088
   653., 1248., 10.31, -22.81,   0.18,  0.105, -0.015,  -86., 42.69, 40.11, 45.38, 47.69,  -0.48, 2.8, 54582., 76806., 0.0,140.4, 98.7,0.,193050.00,  3228.14,  9702.85, 382.1,136.7, 345.93,  1.70,  2., -4.088
   653., 1282., 10.18, -22.81,   0.18, -0.098, -0.223,  -80., 42.69, 39.96, 45.25, 47.35,  -0.48, 2.7, 51016., 79663., 0.1,139.2, 98.9,0.,193050.00,  3228.14,  9702.85, 382.1,136.7, 345.93,  1.70,  2., -4.088
   650., 1231., 10.18, -23.16,   0.18,  0.004, -0.640,  -68., 42.69, 40.11, 45.51, 47.52,  -0.48, 2.7, 56875., 81421., 0.0,140.4, 99.0,0.,193050.00,  3228.14,  9702.85, 382.1,136.7, 345.93,  1.70,  2., -4.088
   650., 1282., 10.18, -22.81,   0.05, -0.098, -0.015,  -44., 42.69, 39.81, 45.25, 47.17,  -0.48, 2.8, 52799., 77905., 0.1,139.6, 99.0,0.,193050.00,  3228.14,  9702.85, 382.1,136.7, 345.93,  1.70,  2., -4.088
   650., 1231., 10.18, -23.16,   0.05, -0.200, -0.431,  -20., 42.69, 40.11, 45.51, 47.35,  -0.48, 2.7, 58403., 77026., 0.0,140.4, 99.0,0.,193050.00,  3228.14,  9702.85, 382.1,136.7, 345.93,  1.70,  2., -4.088
   650., 1300., 10.18, -23.16,   0.05, -0.200, -0.223,    4., 42.69, 39.96, 45.25, 47.17,  -0.26, 2.7, 58148., 80103., 0.1,139.2, 99.0,0.,193050.00,  3228.14,  9702.85, 382.1,136.7, 345.93,  1.70,  2., -4.088
   650., 1248., 10.05, -23.16,  -0.08, -0.200, -0.640,   22., 42.93, 40.27, 45.51, 47.52,  -0.48, 2.7, 58658., 74608., 0.0,140.4, 99.0,0.,193050.00,  3228.14,  9702.85, 382.1,136.7, 345.93,  1.70,  2., -4.088
   650., 1300., 10.05, -23.16,  -0.21, -0.200, -0.223,   46., 42.93, 39.81, 45.38, 47.86,  -0.26, 2.8, 56875., 75927., 0.1,139.6, 98.9,0.,193050.00,  3228.14,  9702.85, 382.1,136.7, 345.93,  1.70,  2., -4.088
   650., 1248., 10.05, -23.16,  -0.08, -0.200, -0.848,   63., 42.93, 40.88, 45.38, 48.71,  -0.48, 2.7, 61715., 78564., 0.1,140.0, 99.0,0.,193050.00,  3228.14,  9702.85, 382.1,136.7, 345.93,  1.70,  2., -4.088
   650., 1300.,  9.92, -23.16,  -0.21, -0.200, -0.431,   81., 42.93, 40.42, 45.38, 48.54,  -0.26, 2.7, 56875., 74169., 0.1,139.2, 99.0,0.,193050.00,  3228.14,  9702.85, 382.1,136.7, 345.93,  1.70,  2., -4.088
   653., 1248.,  9.92, -23.16,  -0.21, -0.200, -0.640,   99., 42.93, 40.88, 45.38, 48.88,  -0.48, 2.7, 60441., 79443., 0.1,140.0, 99.0,0.,193050.00,  3228.14,  9702.85, 382.1,136.7, 345.93,  1.70,  2., -4.088
   653., 1300.,  9.92, -23.16,  -0.48, -0.200, -0.015,  111., 42.81, 40.57, 45.38, 48.71,  -0.48, 2.7, 57384., 77905., 0.1,139.2, 98.7,0.,193050.00,  3228.14,  9702.85, 382.1,136.7, 345.93,  1.70,  2., -4.088
   653., 1265.,  9.79, -23.16,  -0.34, -0.200, -0.431,  123., 42.93, 40.88, 45.38, 48.88,  -0.26, 2.7, 56110., 77905., 0.1,139.2, 98.9,0.,193050.00,  3228.14,  9702.85, 382.1,136.7, 345.93,  1.70,  2., -4.088
   650., 1300.,  9.79, -23.16,  -0.48, -0.098, -0.223,  135., 42.81, 40.57, 45.25, 48.71,  -0.48, 2.8, 61715., 77685., 0.1,138.8, 98.7,0.,193050.00,  3228.14,  9702.85, 382.1,136.7, 345.93,  1.70,  2., -4.088
   653., 1265.,  9.79, -23.16,  -0.48, -0.301, -0.431,  141., 43.05, 40.88, 45.38, 48.88,  -0.48, 2.7, 54837., 76366., 0.1,139.2, 98.9,0.,193050.00,  3228.14,  9702.85, 382.1,136.7, 345.93,  1.70,  2., -4.088
   650., 1300.,  9.79, -23.16,  -0.61, -0.098,  0.402,  147., 42.93, 40.57, 45.25, 48.71,  -0.26, 2.7, 59677., 78344., 0.1,139.2, 98.6,0.,193051.00,  3228.18,  9702.87, 386.7,137.2, 346.07,  6.40,  2.,  4.627
   653., 1265.,  9.67, -23.16,  -0.48, -0.200, -0.223,  147., 43.29, 40.88, 45.25, 48.88,  -0.26, 2.7, 54837., 79223., 0.1,139.2, 98.7,0.,193051.00,  3228.18,  9702.87, 386.7,137.2, 346.07,  6.40,  2.,  4.627
   647., 1300.,  9.67, -23.16,  -0.61, -0.098,  0.611,  141., 43.05, 40.57, 45.25, 48.71,  -0.26, 2.7, 57894., 80762., 0.1,139.2, 98.5,0.,193051.00,  3228.18,  9702.87, 386.7,137.2, 346.07,  6.40,  2.,  4.627
   655., 1265.,  9.67, -23.16,  -0.61, -0.200,  0.819,  135., 43.41, 40.42, 45.25, 48.88,  -0.48, 2.7, 58148., 79223., 0.1,139.2, 98.7,0.,193051.00,  3228.18,  9702.87, 386.7,137.2, 346.07,  6.40,  2.,  4.627
   650., 1300.,  9.67, -22.81,  -0.61,  0.004,  0.819,  117., 43.17, 39.96, 45.25, 48.71,  -0.26, 2.7, 59167., 77465., 0.1,139.2, 98.5,0.,193051.00,  3228.18,  9702.87, 386.7,137.2, 346.07,  6.40,  2.,  4.627
   655., 1265.,  9.54, -22.81,  -0.61, -0.200,  1.027,  105., 43.29, 40.11, 45.25, 48.88,  -0.26, 2.7, 58913., 76586., 0.1,138.8, 98.6,0.,193051.00,  3228.18,  9702.87, 386.7,137.2, 346.07,  6.40,  2.,  4.627
   650., 1300.,  9.67, -22.81,  -0.61,  0.105,  1.236,   87., 43.05, 39.81, 45.25, 48.71,  -0.26, 2.7, 57639., 75927., 0.1,138.8, 98.3,0.,193051.00,  3228.18,  9702.87, 386.7,137.2, 346.07,  6.40,  2.,  4.627
   655., 1265.,  9.54, -22.81,  -0.48, -0.098,  1.652,   75., 43.29, 40.27, 45.25, 48.88,  -0.26, 2.7, 59932., 75268., 0.1,139.2, 98.5,0.,193051.00,  3228.18,  9702.87, 386.7,137.2, 346.07,  6.40,  2.,  4.627
   650., 1300.,  9.54, -22.81,  -0.48,  0.105,  1.652,   63., 43.17, 39.81, 45.38, 48.71,  -0.26, 2.8, 58148., 74608., 0.1,139.2, 98.3,0.,193051.00,  3228.18,  9702.87, 386.7,137.2, 346.07,  6.40,  2.,  4.627
   658., 1265.,  9.54, -22.81,  -0.48, -0.200,  1.861,   52., 43.41, 40.27, 45.25, 48.71,  -0.26, 2.7, 62988., 72630., 0.1,138.8, 98.5,0.,193051.00,  3228.18,  9702.87, 386.7,137.2, 346.07,  6.40,  2.,  4.627
   658., 1282.,  9.54, -22.81,  -0.34,  0.105,  2.277,   34., 43.17, 39.96, 45.38, 48.71,  -0.48, 2.8, 62734., 73729., 0.1,139.2, 98.3,0.,193051.00,  3228.18,  9702.87, 386.7,137.2, 346.07,  6.40,  2.,  4.627
   664., 1265.,  9.54, -22.81,  -0.21, -0.200,  2.069,   28., 43.41, 40.11, 45.25, 48.71,  -0.48, 2.7, 65026., 74388., 0.1,138.4, 98.5,0.,193051.00,  3228.18,  9702.87, 386.7,137.2, 346.07,  6.40,  2.,  4.627
   655., 1282.,  9.54, -22.81,  -0.21,  0.105,  2.277,   34., 43.17, 39.96, 45.38, 48.71,  -0.48, 2.7, 61715., 75487., 0.1,138.8, 98.5,0.,193051.00,  3228.18,  9702.87, 386.7,137.2, 346.07,  6.40,  2.,  4.627
   661., 1265.,  9.41, -22.81,  -0.21, -0.200,  2.277,   40., 43.29, 40.27, 45.25, 48.71,  -0.26, 2.7, 59932., 78564., 0.1,138.4, 98.5,0.,193051.00,  3228.18,  9702.87, 386.7,137.2, 346.07,  6.40,  2.,  4.627
   653., 1265.,  9.41, -22.81,  -0.08,  0.004,  2.277,   52., 43.05, 40.42, 45.38, 48.71,  -0.48, 2.8, 59167., 77026., 0.1,138.8, 98.5,0.,193051.00,  3228.18,  9702.87, 386.7,137.2, 346.07,  6.40,  2.,  4.627
   658., 1265.,  9.41, -22.81,  -0.08, -0.301,  2.277,   57., 43.29, 41.03, 45.25, 48.71,  -0.48, 2.7, 60441., 75927., 0.1,138.4, 98.5,0.,193051.00,  3228.18,  9702.87, 386.7,137.2, 346.07,  6.40,  2.,  4.627
   655., 1265.,  9.41, -22.81,   0.05,  0.004,  2.069,   57., 43.05, 40.73, 45.38, 48.71,  -0.48, 2.7, 61460., 74388., 0.1,138.8, 98.3,0.,193051.00,  3228.18,  9702.87, 386.7,137.2, 346.07,  6.40,  2.,  4.627
   661., 1265.,  9.28, -22.81,   0.18, -0.301,  2.069,   52., 43.17, 40.88, 45.12, 48.54,  -0.48, 2.7, 61969., 75268., 0.1,138.0, 98.5,0.,193051.00,  3228.18,  9702.87, 386.7,137.2, 346.07,  6.40,  2.,  4.627
   655., 1248.,  9.28, -22.81,   0.18,  0.004,  1.861,   46., 42.93, 40.73, 45.38, 48.71,  -0.48, 2.7, 67064., 71971., 0.0,138.8, 98.2,0.,193051.00,  3228.18,  9702.87, 386.7,137.2, 346.07,  6.40,  2.,  4.627
   658., 1265.,  9.28, -22.81,   0.31, -0.200,  1.861,   40., 43.17, 40.88, 45.12, 48.54,  -0.26, 2.7, 64262., 74169., 0.1,137.5, 98.3,0.,193051.00,  3228.18,  9702.87, 386.7,137.2, 346.07,  6.40,  2.,  4.627
   655., 1248.,  9.28, -22.81,   0.31, -0.098,  1.444,   40., 42.81, 40.73, 45.38, 48.71,  -0.48, 2.8, 66555., 72410., 0.0,138.4, 98.3,0.,193051.00,  3228.18,  9702.87, 386.7,137.2, 346.07,  6.40,  2.,  4.627
   658., 1265.,  9.15, -22.81,   0.31, -0.200,  1.861,   34., 43.05, 40.88, 45.12, 48.54,  -0.26, 2.7, 61460., 71312., 0.1,138.0, 98.3,0.,193051.00,  3228.18,  9702.87, 386.7,137.2, 346.07,  6.40,  2.,  4.627
   653., 1248.,  9.02, -22.81,   0.44,  0.004,  1.444,   28., 42.93, 40.73, 45.38, 48.88,  -0.48, 2.8, 63498., 79883., 0.0,138.8, 98.2,0.,193052.00,  3228.21,  9702.88, 382.7,138.0, 346.15,  1.70,  1., -4.021
   658., 1265.,  9.02, -22.81,   0.44, -0.200,  1.861,   28., 43.05, 40.73, 45.12, 48.54,  -0.26, 2.7, 58403., 78344., 0.1,137.5, 98.2,0.,193052.00,  3228.21,  9702.88, 382.7,138.0, 346.15,  1.70,  1., -4.021
   655., 1248.,  9.02, -23.16,   0.44, -0.098,  1.444,   22., 42.93, 40.73, 45.38, 48.88,  -0.48, 2.8, 55346., 84058., 0.0,138.8, 98.2,0.,193052.00,  3228.21,  9702.88, 382.7,138.0, 346.15,  1.70,  1., -4.021
   661., 1282.,  9.02, -22.81,   0.57, -0.301,  1.861,   16., 43.17, 40.73, 45.25, 48.54,  -0.26, 2.7, 56365., 83619., 0.1,138.4, 98.2,0.,193052.00,  3228.21,  9702.88, 382.7,138.0, 346.15,  1.70,  1., -4.021
   655., 1231.,  9.02, -22.81,   0.57,  0.004,  1.652,   -2., 42.93, 40.73, 45.51, 48.54,  -0.48, 2.8, 54837., 84498., 0.0,139.2, 98.2,0.,193052.00,  3228.21,  9702.88, 382.7,138.0, 346.15,  1.70,  1., -4.021
   658., 1282.,  8.89, -22.81,   0.57, -0.098,  2.069,  -14., 42.93, 40.57, 45.25, 48.37,  -0.26, 2.7, 64262., 82520., 0.1,137.5, 98.2,0.,193052.00,  3228.21,  9702.88, 382.7,138.0, 346.15,  1.70,  1., -4.021
   655., 1248.,  8.89, -23.16,   0.70,  0.105,  1.652,  -20., 42.69, 40.73, 45.51, 48.71,  -0.48, 2.8, 58658., 75927., 0.0,138.4, 98.0,0.,193052.00,  3228.21,  9702.88, 382.7,138.0, 346.15,  1.70,  1., -4.021
   658., 1282.,  8.89, -23.16,   0.70, -0.098,  1.652,  -20., 42.44, 40.57, 45.25, 48.37,  -0.26, 2.7, 64772., 71751., 0.1,138.0, 97.9,0.,193052.00,  3228.21,  9702.88, 382.7,138.0, 346.15,  1.70,  1., -4.021
   655., 1231.,  8.89, -23.16,   0.70,  0.004,  1.236,  -32., 42.32, 40.73, 45.51, 48.71,  -0.48, 2.8, 60696., 75707., 0.0,139.2, 97.9,0.,193052.00,  3228.21,  9702.88, 382.7,138.0, 346.15,  1.70,  1., -4.021
   655., 1282.,  8.77, -23.16,   0.83, -0.200,  1.027,  -38., 42.32, 40.57, 45.25, 48.37,  -0.26, 2.7, 57894., 74828., 0.1,138.4, 97.7,0.,193052.00,  3228.21,  9702.88, 382.7,138.0, 346.15,  1.70,  1., -4.021
   655., 1248.,  8.77, -23.16,   0.83, -0.200,  1.027,  -50., 42.32, 40.73, 45.64, 48.71,  -0.48, 2.8, 55601., 73949., 0.0,138.8, 97.7,0.,193052.00,  3228.21,  9702.88, 382.7,138.0, 346.15,  1.70,  1., -4.021
   655., 1300.,  8.77, -23.16,   0.83, -0.200,  0.819,  -50., 42.32, 40.57, 45.38, 48.37,  -0.26, 2.8, 61969., 75487., 0.1,137.5, 97.7,0.,193052.00,  3228.21,  9702.88, 382.7,138.0, 346.15,  1.70,  1., -4.021
   658., 1248.,  8.64, -23.16,   0.83, -0.301,  0.819,  -44., 42.32, 40.73, 45.64, 48.71,  -0.48, 2.8, 61969., 69993., 0.0,138.0, 97.7,0.,193052.00,  3228.21,  9702.88, 382.7,138.0, 346.15,  1.70,  1., -4.021
   658., 1300.,  8.64, -23.16,   0.83, -0.403,  0.819,  -32., 41.96, 40.57, 45.51, 48.37,  -0.26, 2.8, 60696., 73949., 0.1,138.0, 97.7,0.,193052.00,  3228.21,  9702.88, 382.7,138.0, 346.15,  1.70,  1., -4.021
   661., 1248.,  8.51, -23.16,   0.83, -0.607,  0.402,  -20., 41.84, 40.73, 45.64, 48.71,  -0.48, 2.8, 63243., 73290., 0.0,138.4, 97.9,0.,193052.00,  3228.21,  9702.88, 382.7,138.0, 346.15,  1.70,  1., -4.021
   661., 1300.,  8.51, -23.16,   0.70, -0.607,  0.194,   -8., 41.60, 40.57, 45.51, 48.37,  -0.26, 2.8, 54327., 75048., 0.1,137.5, 97.7,0.,193052.00,  3228.21,  9702.88, 382.7,138.0, 346.15,  1.70,  1., -4.021
   661., 1248.,  8.51, -23.16,   0.70, -0.607, -0.015,  -14., 41.72, 40.88, 45.64, 48.71,  -0.48, 2.8, 62988., 74388., 0.1,138.4, 97.9,0.,193052.00,  3228.21,  9702.88, 382.7,138.0, 346.15,  1.70,  1., -4.021
   661., 1300.,  8.38, -23.51,   0.70, -0.505,  0.611,  -14., 41.60, 40.57, 45.51, 48.54,  -0.26, 2.8, 60441., 73509., 0.1,138.4, 97.7,0.,193052.00,  3228.21,  9702.88, 382.7,138.0, 346.15,  1.70,  1., -4.021
   664., 1248.,  8.25, -23.51,   0.70, -0.505, -0.431,  -38., 41.72, 40.88, 45.64, 48.71,  -0.48, 2.8, 61715., 70872., 0.0,139.2, 97.9,0.,193052.00,  3228.21,  9702.88, 382.7,138.0, 346.15,  1.70,  1., -4.021
   661., 1300.,  8.25, -23.51,   0.57, -0.301,  0.402,  -56., 41.60, 40.57, 45.51, 48.54,  -0.26, 2.8, 58148., 73070., 0.1,138.8, 97.9,0.,193052.00,  3228.21,  9702.88, 382.7,138.0, 346.15,  1.70,  1., -4.021
   666., 1265.,  8.25, -23.51,   0.57, -0.200, -0.223,  -74., 41.72, 40.88, 45.64, 48.71,  -0.26, 2.8, 58148., 77026., 0.1,139.2, 98.0,0.,193052.00,  3228.21,  9702.88, 382.7,138.0, 346.15,  1.70,  1., -4.021
   661., 1300.,  8.25, -23.51,   0.57, -0.098, -0.015,  -80., 41.60, 40.57, 45.64, 48.54,  -0.48, 2.8, 54072., 74608., 0.1,138.8, 98.0,0.,193052.00,  3228.21,  9702.88, 382.7,138.0, 346.15,  1.70,  1., -4.021
   666., 1265.,  8.25, -23.86,   0.44,  0.004, -0.015,  -80., 41.72, 40.88, 45.64, 48.71,  -0.26, 2.7, 56620., 73290., 0.1,138.4, 98.2,0.,193053.00,  3228.25,  9702.89, 382.3,139.3, 346.47,  1.70,  2., -0.362
   661., 1300.,  8.25, -23.86,   0.44,  0.105,  0.194,  -80., 41.60, 40.57, 45.64, 48.54,  -0.26, 2.8, 62479., 72850., 0.1,138.0, 98.0,0.,193053.00,  3228.25,  9702.89, 382.3,139.3, 346.47,  1.70,  2., -0.362
   664., 1265.,  8.25, -23.51,   0.44, -0.098, -0.223,  -74., 41.72, 40.88, 45.51, 48.71,  -0.26, 2.7, 57639., 76806., 0.1,138.8, 98.3,0.,193053.00,  3228.25,  9702.89, 382.3,139.3, 346.47,  1.70,  2., -0.362
   661., 1300.,  8.25, -23.51,   0.31,  0.004, -0.223,  -74., 41.60, 40.57, 45.51, 48.54,  -0.26, 2.8, 55601., 75927., 0.1,138.8, 98.3,0.,193053.00,  3228.25,  9702.89, 382.3,139.3, 346.47,  1.70,  2., -0.362
   666., 1265.,  8.25, -23.86,   0.31, -0.098, -0.431,  -86., 41.60, 41.03, 45.51, 48.71,  -0.48, 2.7, 44647., 82520., 0.1,139.2, 98.5,0.,193053.00,  3228.25,  9702.89, 382.3,139.3, 346.47,  1.70,  2., -0.362
   661., 1300.,  8.25, -23.86,   0.18,  0.105, -0.223, -104., 41.36, 40.57, 45.51, 48.54,  -0.26, 2.8, 46685., 81641., 0.1,139.6, 98.3,0.,193053.00,  3228.25,  9702.89, 382.3,139.3, 346.47,  1.70,  2., -0.362
   666., 1265.,  8.12, -23.86,   0.18, -0.098, -0.015, -133., 41.60, 41.03, 45.38, 48.71,  -0.48, 2.7, 45157., 79223., 0.1,139.6, 98.6,0.,193053.00,  3228.25,  9702.89, 382.3,139.3, 346.47,  1.70,  2., -0.362
   661., 1282.,  8.25, -23.86,   0.18,  0.004, -0.015, -163., 41.48, 40.73, 45.51, 48.54,  -0.48, 2.8, 52799., 76586., 0.1,140.0, 98.5,0.,193053.00,  3228.25,  9702.89, 382.3,139.3, 346.47,  1.70,  2., -0.362
   666., 1265.,  8.12, -23.86,   0.18, -0.098, -0.223, -199., 41.84, 41.03, 45.38, 48.54,  -0.26, 2.7, 52799., 68674., 0.1,140.0, 98.7,0.,193053.00,  3228.25,  9702.89, 382.3,139.3, 346.47,  1.70,  2., -0.362
   661., 1282.,  8.12, -23.51,   0.05,  0.105, -0.015, -229., 41.60, 40.73, 45.38, 48.54,  -0.48, 2.8, 54582., 69773., 0.1,140.0, 98.6,0.,193053.00,  3228.25,  9702.89, 382.3,139.3, 346.47,  1.70,  2., -0.362
   666., 1248.,  8.12, -23.86,   0.05, -0.098, -0.015, -247., 41.96, 41.03, 45.25, 48.54,  -0.26, 2.7, 57129., 66257., 0.1,139.6, 98.9,0.,193053.00,  3228.25,  9702.89, 382.3,139.3, 346.47,  1.70,  2., -0.362
   664., 1282.,  8.12, -23.86,   0.05,  0.105, -0.223, -265., 41.84, 40.73, 45.38, 48.54,  -0.48, 2.8, 52544., 69334., 0.1,140.4, 98.9,0.,193053.00,  3228.25,  9702.89, 382.3,139.3, 346.47,  1.70,  2., -0.362
   669., 1265.,  8.12, -23.51,   0.05,  0.004, -0.223, -282., 42.08, 41.03, 45.25, 48.54,  -0.26, 2.7, 56110., 70872., 0.1,140.4, 99.2,0.,193053.00,  3228.25,  9702.89, 382.3,139.3, 346.47,  1.70,  2., -0.362
   664., 1265.,  8.12, -23.51,  -0.08,  0.207, -0.223, -288., 41.84, 40.73, 45.38, 48.54,  -0.48, 2.8, 49232., 75487., 0.1,140.8, 99.2,0.,193053.00,  3228.25,  9702.89, 382.3,139.3, 346.47,  1.70,  2., -0.362
   666., 1265.,  8.12, -23.51,  -0.08,  0.004, -0.431, -288., 41.96, 41.03, 45.25, 48.37,  -0.26, 2.7, 50506., 78344., 0.1,140.0, 99.5,0.,193053.00,  3228.25,  9702.89, 382.3,139.3, 346.47,  1.70,  2., -0.362
   661., 1265.,  8.12, -23.51,  -0.08,  0.207, -0.015, -271., 41.60, 40.73, 45.51, 48.54,  -0.48, 2.8, 49742., 76806., 0.0,140.4, 99.5,0.,193053.00,  3228.25,  9702.89, 382.3,139.3, 346.47,  1.70,  2., -0.362
   669., 1265.,  8.12, -23.51,  -0.21,  0.004, -0.223, -247., 41.72, 41.03, 45.25, 48.37,  -0.48, 2.7, 54837., 75048., 0.1,139.6, 99.7,0.,193053.00,  3228.25,  9702.89, 382.3,139.3, 346.47,  1.70,  2., -0.362
   661., 1265.,  8.12, -23.51,  -0.21,  0.207, -0.015, -223., 41.48, 40.73, 45.51, 48.54,  -0.48, 2.8, 58913., 69553., 0.1,140.4, 99.7,0.,193053.00,  3228.25,  9702.89, 382.3,139.3, 346.47,  1.70,  2., -0.362
   669., 1265.,  8.12, -23.16,  -0.21,  0.004, -0.223, -199., 41.72, 40.88, 45.38, 48.37,  -0.26, 2.7, 63753., 74169., 0.1,140.0, 99.9,0.,193053.00,  3228.25,  9702.89, 382.3,139.3, 346.47,  1.70,  2., -0.362
   666., 1248.,  8.12, -23.51,  -0.21,  0.207, -0.223, -169., 41.60, 39.96, 45.64, 48.54,  -0.48, 2.8, 60696., 71751., 0.0,140.8, 99.9,0.,193053.00,  3228.25,  9702.89, 382.3,139.3, 346.47,  1.70,  2., -0.362
   669., 1265.,  8.12, -23.51,  -0.21,  0.105, -0.223, -151., 42.08, 40.11, 45.51, 48.37,  -0.26, 2.7, 54837., 75048., 0.1,139.6,100.0,0.,193053.00,  3228.25,  9702.89, 382.3,139.3, 346.47,  1.70,  2., -0.362
   664., 1248.,  8.12, -23.51,  -0.34,  0.309, -0.431, -139., 41.84, 39.81, 45.64, 48.54,  -0.48, 2.7, 55856., 81641., 0.0,141.2,100.0,0.,193053.00,  3228.25,  9702.89, 382.3,139.3, 346.47,  1.70,  2., -0.362
   666., 1265.,  8.12, -23.16,  -0.34,  0.105, -0.431, -133., 42.08, 39.96, 45.51, 48.37,  -0.26, 2.7, 49232., 79883., 0.1,141.2,100.0,0.,193054.00,  3228.29,  9702.90, 382.4,140.2, 346.42,  1.70,  3.,  0.105
   664., 1231.,  8.25, -23.16,  -0.34,  0.207, -0.431, -139., 41.96, 39.81, 45.77, 48.54,  -0.48, 2.8, 53563., 77245., 0.0,142.4,100.0,0.,193054.00,  3228.29,  9702.90, 382.4,140.2, 346.42,  1.70,  3.,  0.105
   666., 1265.,  8.12, -23.16,  -0.34,  0.105,  0.402, -163., 42.20, 39.96, 45.51, 48.37,  -0.48, 2.7, 53563., 72410., 0.1,142.4,100.0,0.,193054.00,  3228.29,  9702.90, 382.4,140.2, 346.42,  1.70,  3.,  0.105
   664., 1231.,  8.12, -23.16,  -0.34,  0.207, -0.431, -199., 41.96, 39.96, 45.77, 48.71,  -0.48, 2.8, 60950., 68674., 0.0,143.6,100.0,0.,193054.00,  3228.29,  9702.90, 382.4,140.2, 346.42,  1.70,  3.,  0.105
   669., 1265.,  8.25, -23.16,  -0.48,  0.105, -0.015, -229., 42.20, 40.11, 45.51, 48.71,  -0.26, 2.7, 59932., 68015., 0.1,142.8,100.0,0.,193054.00,  3228.29,  9702.90, 382.4,140.2, 346.42,  1.70,  3.,  0.105
   666., 1231.,  8.25, -23.16,  -0.48,  0.207, -0.431, -259., 42.08, 39.96, 45.77, 48.88,  -0.48, 2.8, 60950., 70652., 0.0,143.9,100.2,0.,193054.00,  3228.29,  9702.90, 382.4,140.2, 346.42,  1.70,  3.,  0.105
   669., 1265.,  8.12, -23.16,  -0.48,  0.105,  0.402, -271., 42.20, 39.96, 45.51, 48.71,  -0.26, 2.7, 57894., 71092., 0.1,143.2,100.2,0.,193054.00,  3228.29,  9702.90, 382.4,140.2, 346.42,  1.70,  3.,  0.105
   666., 1231.,  8.25, -23.16,  -0.48,  0.207, -0.431, -277., 42.08, 39.96, 45.77, 49.05,  -0.48, 2.8, 52544., 79223., 0.0,144.3,100.2,0.,193054.00,  3228.29,  9702.90, 382.4,140.2, 346.42,  1.70,  3.,  0.105
   669., 1282.,  8.25, -23.16,  -0.61,  0.105,  0.194, -265., 42.20, 39.81, 45.51, 48.88,  -0.26, 2.7, 49742., 82300., 0.1,143.2,100.2,0.,193054.00,  3228.29,  9702.90, 382.4,140.2, 346.42,  1.70,  3.,  0.105
   666., 1231.,  8.25, -23.16,  -0.61,  0.309, -0.015, -253., 42.08, 39.96, 45.77, 49.22,  -0.48, 2.8, 40316., 86256., 0.0,143.9,100.2,0.,193054.00,  3228.29,  9702.90, 382.4,140.2, 346.42,  1.70,  3.,  0.105
   666., 1282.,  8.25, -23.16,  -0.61,  0.207,  0.611, -235., 41.96, 39.81, 45.64, 48.88,  -0.48, 2.8, 45666., 87795., 0.1,144.3,100.3,0.,193054.00,  3228.29,  9702.90, 382.4,140.2, 346.42,  1.70,  3.,  0.105
   666., 1231.,  8.25, -22.81,  -0.61,  0.309,  0.611, -205., 41.60, 39.96, 45.77, 49.22,  -0.48, 2.8, 53054., 93948., 0.0,145.1,100.3,0.,193054.00,  3228.29,  9702.90, 382.4,140.2, 346.42,  1.70,  3.,  0.105
   666., 1282.,  8.25, -22.81,  -0.61,  0.004,  1.652, -145., 41.36, 40.11, 45.64, 48.88,  -0.26, 2.7, 56620., 78784., 0.1,142.8,100.3,0.,193054.00,  3228.29,  9702.90, 382.4,140.2, 346.42,  1.70,  3.,  0.105
   666., 1231.,  8.25, -22.81,  -0.48,  0.004,  1.236,  -92., 41.00, 40.73, 45.77, 49.39,  -0.48, 2.8, 60186., 77026., 0.0,143.2,100.2,0.,193054.00,  3228.29,  9702.90, 382.4,140.2, 346.42,  1.70,  3.,  0.105
   664., 1300.,  8.25, -22.81,  -0.48,  0.105,  1.652,  -44., 40.76, 40.42, 45.64, 49.05,  -0.26, 2.8, 66045., 76366., 0.1,143.2,100.0,0.,193054.00,  3228.29,  9702.90, 382.4,140.2, 346.42,  1.70,  3.,  0.105
   666., 1248.,  8.25, -22.81,  -0.34,  0.207,  1.027,  -26., 41.00, 40.73, 45.77, 49.39,  -0.48, 2.7, 58658., 67575., 0.0,144.7, 99.9,0.,193054.00,  3228.29,  9702.90, 382.4,140.2, 346.42,  1.70,  3.,  0.105
   666., 1300.,  8.38, -22.81,  -0.48,  0.512,  1.027,  -26., 41.36, 40.57, 45.64, 49.05,  -0.26, 2.8, 58658., 75927., 0.1,145.1, 99.7,0.,193054.00,  3228.29,  9702.90, 382.4,140.2, 346.42,  1.70,  3.,  0.105
   669., 1248.,  8.38, -22.46,  -0.34,  0.614,  2.069,  -32., 41.84, 40.88, 45.77, 49.39,  -0.26, 2.8, 61715., 72410., 0.1,145.1, 99.7,0.,193054.00,  3228.29,  9702.90, 382.4,140.2, 346.42,  1.70,  3.,  0.105
   666., 1300.,  8.38, -22.81,  -0.21,  1.020,  1.444,  -32., 42.44, 40.57, 45.64, 49.05,  -0.26, 2.8, 56875., 77026., 0.1,143.6, 99.6,0.,193054.00,  3228.29,  9702.90, 382.4,140.2, 346.42,  1.70,  3.,  0.105
   669., 1248.,  8.51, -22.46,  -0.21,  0.715,  1.027,  -26., 43.17, 40.88, 45.77, 49.39,  -0.48, 2.7, 62224., 77465., 0.0,143.9, 99.6,0.,193054.00,  3228.29,  9702.90, 382.4,140.2, 346.42,  1.70,  3.,  0.105
   666., 1300.,  8.64, -22.46,  -0.21,  0.715,  2.069,   -8., 43.41, 40.57, 45.64, 49.22,  -0.26, 2.7, 56620., 78784., 0.1,143.9, 99.5,0.,193054.00,  3228.29,  9702.90, 382.4,140.2, 346.42,  1.70,  3.,  0.105
   669., 1265.,  8.64, -22.46,  -0.08,  0.410,  1.861,    4., 44.01, 40.88, 45.77, 49.39,  -0.26, 2.7, 55346., 81201., 0.1,143.9, 99.6,0.,193055.00,  3228.33,  9702.91, 383.1,141.2, 346.51,  1.70,  4.,  0.683
   666., 1300.,  8.64, -22.46,  -0.21,  0.410,  1.861,   28., 44.37, 40.57, 45.64, 49.05,  -0.26, 2.7, 54072., 83839., 0.1,143.2, 99.3,0.,193055.00,  3228.33,  9702.91, 383.1,141.2, 346.51,  1.70,  4.,  0.683
   669., 1265.,  8.64, -22.46,  -0.08,  0.004,  2.069,   52., 45.09, 40.88, 45.77, 49.39,  -0.48, 2.7, 56620., 79443., 0.1,143.2, 99.5,0.,193055.00,  3228.33,  9702.91, 383.1,141.2, 346.51,  1.70,  4.,  0.683
   666., 1300.,  8.64, -22.46,  -0.08,  0.004,  2.694,   87., 45.33, 40.57, 45.64, 49.05,  -0.26, 2.8, 58403., 78125., 0.1,143.6, 99.2,0.,193055.00,  3228.33,  9702.91, 383.1,141.2, 346.51,  1.70,  4.,  0.683
   672., 1265.,  8.64, -22.46,   0.18, -0.301,  2.277,  111., 45.81, 41.03, 45.77, 49.05,  -0.26, 2.7, 62734., 77245., 0.1,144.3, 99.3,0.,193055.00,  3228.33,  9702.91, 383.1,141.2, 346.51,  1.70,  4.,  0.683
   669., 1300.,  8.64, -22.46,   0.18, -0.403,  2.694,  123., 45.93, 40.57, 46.28, 48.88,  -0.26, 2.7, 58403., 72850., 0.1,145.1, 99.2,0.,193055.00,  3228.33,  9702.91, 383.1,141.2, 346.51,  1.70,  4.,  0.683
   674., 1265.,  8.51, -22.46,   0.31, -0.708,  2.069,  117., 46.17, 41.03, 46.54, 49.05,  -0.48, 2.7, 62988., 80322., 0.1,145.5, 99.3,0.,193055.00,  3228.33,  9702.91, 383.1,141.2, 346.51,  1.70,  4.,  0.683
   669., 1300.,  8.51, -22.46,   0.31, -0.708,  2.694,   99., 45.93, 40.57, 46.54, 48.88,  -0.48, 2.7, 63753., 75048., 0.1,144.7, 99.0,0.,193055.00,  3228.33,  9702.91, 383.1,141.2, 346.51,  1.70,  4.,  0.683
   674., 1265.,  8.38, -22.46,   0.44, -1.013,  2.069,   87., 46.17, 41.03, 46.54, 49.05,  -0.48, 2.7, 64262., 74828., 0.1,144.3, 99.2,0.,193055.00,  3228.33,  9702.91, 383.1,141.2, 346.51,  1.70,  4.,  0.683
   669., 1300.,  8.25, -22.46,   0.44, -0.912,  2.277,   81., 45.69, 40.57, 46.67, 48.88,  -0.48, 2.7, 67828., 73509., 0.1,145.1, 98.9,0.,193055.00,  3228.33,  9702.91, 383.1,141.2, 346.51,  1.70,  4.,  0.683
   674., 1265.,  8.12, -22.46,   0.57, -1.217,  1.861,   87., 45.69, 41.03, 46.67, 49.05,  -0.26, 2.7, 64007., 74828., 0.1,144.3, 99.0,0.,193055.00,  3228.33,  9702.91, 383.1,141.2, 346.51,  1.70,  4.,  0.683
   669., 1282.,  7.99, -22.46,   0.57, -1.115,  1.861,  117., 45.33, 40.73, 46.93, 48.88,  -0.26, 2.8, 66300., 75268., 0.1,143.6, 98.9,0.,193055.00,  3228.33,  9702.91, 383.1,141.2, 346.51,  1.70,  4.,  0.683
   674., 1265.,  7.87, -22.81,   0.70, -1.217,  1.444,  141., 45.57, 41.03, 46.80, 48.88,  -0.48, 2.7, 64007., 79443., 0.1,142.8, 98.9,0.,193055.00,  3228.33,  9702.91, 383.1,141.2, 346.51,  1.70,  4.,  0.683
   669., 1282.,  7.87, -22.81,   0.70, -1.013,  1.444,  159., 45.21, 40.73, 47.05, 48.88,  -0.48, 2.7, 67574., 75927., 0.1,143.2, 98.7,0.,193055.00,  3228.33,  9702.91, 383.1,141.2, 346.51,  1.70,  4.,  0.683
   674., 1265.,  7.74, -22.46,   0.70, -1.013,  1.444,  177., 45.09, 41.03, 46.93, 48.88,  -0.26, 2.7, 69357., 74828., 0.1,142.8, 98.9,0.,193055.00,  3228.33,  9702.91, 383.1,141.2, 346.51,  1.70,  4.,  0.683
   669., 1265.,  7.74, -22.81,   0.70, -0.708,  1.027,  201., 44.49, 40.73, 47.05, 48.88,  -0.48, 2.7, 69612., 76366., 0.1,143.2, 98.6,0.,193055.00,  3228.33,  9702.91, 383.1,141.2, 346.51,  1.70,  4.,  0.683
   674., 1265.,  7.61, -23.16,   0.70, -0.810,  1.027,  224., 44.37, 41.03, 46.80, 48.88,  -0.26, 2.7, 66810., 72850., 0.1,142.4, 98.6,0.,193055.00,  3228.33,  9702.91, 383.1,141.2, 346.51,  1.70,  4.,  0.683
   669., 1265.,  7.61, -22.81,   0.70, -0.505,  0.611,  242., 43.77, 40.73, 47.05, 48.88,  -0.48, 2.8, 68338., 80103., 0.1,142.8, 98.5,0.,193055.00,  3228.33,  9702.91, 383.1,141.2, 346.51,  1.70,  4.,  0.683
   674., 1265.,  7.61, -23.16,   0.70, -0.607,  0.402,  254., 44.01, 40.88, 46.80, 48.88,  -0.26, 2.7, 60441., 78344., 0.1,142.4, 98.5,0.,193055.00,  3228.33,  9702.91, 383.1,141.2, 346.51,  1.70,  4.,  0.683
   672., 1248.,  7.48, -23.16,   0.70, -0.200, -0.015,  236., 44.01, 40.73, 46.93, 48.88,  -0.48, 2.8, 59422., 80542., 0.0,143.6, 98.3,0.,193055.00,  3228.33,  9702.91, 383.1,141.2, 346.51,  1.70,  4.,  0.683
   677., 1265.,  7.48, -23.51,   0.70, -0.098,  0.402,  207., 44.73, 40.88, 46.54, 48.88,  -0.26, 2.7, 62479., 79663., 0.1,143.2, 98.3,0.,193055.00,  3228.33,  9702.91, 383.1,141.2, 346.51,  1.70,  4.,  0.683
   672., 1248.,  7.48, -23.16,   0.70,  0.207, -0.223,  165., 45.21, 40.73, 46.80, 48.88,  -0.48, 2.8, 56620., 75927., 0.0,143.9, 98.2,0.,193055.00,  3228.33,  9702.91, 383.1,141.2, 346.51,  1.70,  4.,  0.683
   680., 1265.,  7.48, -23.16,   0.70,  0.004, -0.015,  123., 46.17, 40.88, 46.67, 48.71,  -0.26, 2.7, 64262., 77465., 0.1,143.9, 98.2,0.,193056.00,  3228.36,  9702.92, 383.8,142.3, 346.90,  1.70,  5.,  0.712
   674., 1248.,  7.48, -23.51,   0.57,  0.207, -0.015,   93., 46.41, 40.73, 46.80, 49.05,  -0.48, 2.8, 57129., 80103., 0.0,144.7, 98.2,0.,193056.00,  3228.36,  9702.92, 383.8,142.3, 346.90,  1.70,  5.,  0.712
   680., 1265.,  7.48, -23.51,   0.57, -0.200, -0.015,   75., 47.13, 40.88, 46.67, 48.71,  -0.26, 2.7, 59167., 80762., 0.1,143.6, 98.2,0.,193056.00,  3228.36,  9702.92, 383.8,142.3, 346.90,  1.70,  5.,  0.712
   677., 1248.,  7.35, -23.51,   0.44,  0.004, -0.223,   63., 47.13, 40.73, 46.80, 49.05,  -0.48, 2.8, 56875., 86036., 0.0,143.6, 98.2,0.,193056.00,  3228.36,  9702.92, 383.8,142.3, 346.90,  1.70,  5.,  0.712
   680., 1265.,  7.35, -23.16,   0.44, -0.301, -0.015,   63., 47.37, 41.03, 46.67, 48.88,  -0.48, 2.7, 58913., 84278., 0.1,142.4, 98.2,0.,193056.00,  3228.36,  9702.92, 383.8,142.3, 346.90,  1.70,  5.,  0.712
   674., 1231.,  7.35, -23.51,   0.44, -0.301, -0.015,   63., 47.25, 40.88, 46.80, 48.88,  -0.48, 2.8, 58403., 81861., 0.0,143.9, 98.2,0.,193056.00,  3228.36,  9702.92, 383.8,142.3, 346.90,  1.70,  5.,  0.712
   677., 1265.,  7.22, -23.51,   0.44, -0.607, -0.015,   63., 47.49, 40.88, 46.67, 48.71,  -0.48, 2.7, 61969., 79883., 0.1,143.2, 98.2,0.,193056.00,  3228.36,  9702.92, 383.8,142.3, 346.90,  1.70,  5.,  0.712
   674., 1248.,  7.22, -23.51,   0.44, -0.607,  0.194,   63., 47.61, 41.03, 46.93, 49.05,  -0.48, 2.8, 60441., 72850., 0.0,144.7, 98.2,0.,193056.00,  3228.36,  9702.92, 383.8,142.3, 346.90,  1.70,  5.,  0.712
   677., 1282.,  7.09, -23.51,   0.44, -0.810,  0.402,   52., 48.09, 40.73, 46.67, 48.71,  -0.26, 2.7, 57384., 76366., 0.1,143.9, 98.2,0.,193056.00,  3228.36,  9702.92, 383.8,142.3, 346.90,  1.70,  5.,  0.712
   672., 1231.,  7.09, -23.51,   0.31, -0.810, -0.015,   28., 48.09, 41.03, 46.93, 49.05,  -0.48, 2.8, 60696., 77245., 0.0,144.7, 98.2,0.,193056.00,  3228.36,  9702.92, 383.8,142.3, 346.90,  1.70,  5.,  0.712
   674., 1282.,  6.97, -23.16,   0.31, -0.810,  0.611,   -8., 48.21, 40.88, 46.67, 48.71,  -0.26, 2.8, 53308., 77905., 0.1,144.3, 98.2,0.,193056.00,  3228.36,  9702.92, 383.8,142.3, 346.90,  1.70,  5.,  0.712
   672., 1231.,  6.84, -23.16,   0.31, -0.810, -0.015,  -62., 48.09, 41.03, 46.80, 49.05,  -0.48, 2.8, 58658., 77685., 0.0,145.9, 98.2,0.,193056.00,  3228.36,  9702.92, 383.8,142.3, 346.90,  1.70,  5.,  0.712
   674., 1282.,  6.71, -23.16,   0.31, -0.708,  0.611, -115., 47.85, 40.73, 46.67, 48.71,  -0.26, 2.8, 55601., 76147., 0.1,145.1, 98.3,0.,193056.00,  3228.36,  9702.92, 383.8,142.3, 346.90,  1.70,  5.,  0.712
   674., 1231.,  6.71, -23.16,   0.31, -0.708, -0.223, -169., 47.25, 40.73, 46.93, 49.05,  -0.48, 2.8, 54327., 76366., 0.0,145.5, 98.3,0.,193056.00,  3228.36,  9702.92, 383.8,142.3, 346.90,  1.70,  5.,  0.712
   672., 1282.,  6.58, -23.16,   0.31, -0.607,  0.611, -217., 46.65, 40.73, 46.67, 48.88,  -0.26, 2.8, 50506., 77905., 0.1,145.1, 98.5,0.,193056.00,  3228.36,  9702.92, 383.8,142.3, 346.90,  1.70,  5.,  0.712
   672., 1248.,  6.58, -23.16,   0.31, -0.607,  0.194, -271., 46.41, 40.88, 46.80, 49.22,  -0.48, 2.8, 46176., 83839., 0.1,146.3, 98.6,0.,193056.00,  3228.36,  9702.92, 383.8,142.3, 346.90,  1.70,  5.,  0.712
   669., 1300.,  6.45, -23.16,   0.31, -0.505,  0.819, -324., 46.29, 40.57, 46.67, 48.88,  -0.26, 2.8, 46430., 80322., 0.1,146.7, 98.7,0.,193056.00,  3228.36,  9702.92, 383.8,142.3, 346.90,  1.70,  5.,  0.712
   669., 1231.,  6.45, -23.16,   0.31, -0.403,  0.611, -384., 46.17, 40.88, 46.80, 49.05,  -0.48, 2.8, 51016., 80322., 0.0,147.8, 98.9,0.,193056.00,  3228.36,  9702.92, 383.8,142.3, 346.90,  1.70,  5.,  0.712
   669., 1300.,  6.45, -23.16,   0.31, -0.301,  1.236, -426., 46.05, 40.57, 46.67, 48.88,  -0.26, 2.8, 58658., 76147., 0.1,146.3, 99.0,0.,193056.00,  3228.36,  9702.92, 383.8,142.3, 346.90,  1.70,  5.,  0.712
   672., 1248.,  6.32, -22.81,   0.31, -0.200,  0.819, -461., 45.93, 40.88, 46.80, 48.88,  -0.48, 2.8, 56110., 72191., 0.1,147.0, 99.2,0.,193056.00,  3228.36,  9702.92, 383.8,142.3, 346.90,  1.70,  5.,  0.712
   672., 1300.,  6.32, -22.81,   0.31, -0.200,  1.027, -479., 45.81, 40.57, 46.67, 48.37,  -0.26, 2.8, 61969., 74388., 0.1,147.0, 99.2,0.,193056.00,  3228.36,  9702.92, 383.8,142.3, 346.90,  1.70,  5.,  0.712
   674., 1248.,  6.32, -22.81,   0.44, -0.200,  0.611, -479., 45.93, 40.88, 46.80, 48.54,  -0.48, 2.7, 59422., 78125., 0.0,147.4, 99.5,0.,193056.00,  3228.36,  9702.92, 383.8,142.3, 346.90,  1.70,  5.,  0.712
   672., 1300.,  6.32, -22.81,   0.31, -0.098,  0.611, -467., 45.81, 40.57, 46.67, 48.20,  -0.26, 2.7, 55346., 78125., 0.1,145.9, 99.3,0.,193057.00,  3228.40,  9702.93, 383.4,143.4, 346.71,  1.70,  2., -0.360
   672., 1248.,  6.19, -22.46,   0.44, -0.098,  0.402, -467., 45.93, 40.88, 46.80, 48.54,  -0.26, 2.8, 56110., 77245., 0.1,146.3, 99.6,0.,193057.00,  3228.40,  9702.93, 383.4,143.4, 346.71,  1.70,  2., -0.360
   669., 1282.,  6.19, -22.46,   0.31,  0.105,  0.194, -467., 45.57, 40.57, 46.67, 48.20,  -0.26, 2.7, 61205., 76806., 0.1,147.0, 99.6,0.,193057.00,  3228.40,  9702.93, 383.4,143.4, 346.71,  1.70,  2., -0.360
   674., 1248.,  6.19, -22.46,   0.31, -0.098,  0.402, -479., 45.69, 40.88, 46.80, 48.37,  -0.26, 2.7, 62988., 67575., 0.1,147.4, 99.7,0.,193057.00,  3228.40,  9702.93, 383.4,143.4, 346.71,  1.70,  2., -0.360
   669., 1300.,  6.19, -22.46,   0.31,  0.105,  0.194, -491., 45.45, 40.57, 46.67, 48.20,  -0.48, 2.8, 67574., 69993., 0.1,147.8, 99.6,0.,193057.00,  3228.40,  9702.93, 383.4,143.4, 346.71,  1.70,  2., -0.360
   672., 1248.,  6.19, -22.46,   0.31,  0.004, -0.015, -515., 45.45, 40.88, 46.67, 48.37,  -0.26, 2.7, 65536., 66916., 0.1,148.2, 99.9,0.,193057.00,  3228.40,  9702.93, 383.4,143.4, 346.71,  1.70,  2., -0.360
   664., 1282.,  6.19, -22.81,   0.18,  0.207, -0.015, -551., 45.09, 40.57, 46.67, 48.20,  -0.48, 2.8, 61460., 68235., 0.1,148.9, 99.7,0.,193057.00,  3228.40,  9702.93, 383.4,143.4, 346.71,  1.70,  2., -0.360
   672., 1248.,  6.19, -22.46,   0.18,  0.207, -0.431, -581., 45.09, 41.03, 46.67, 48.37,  -0.26, 2.7, 71904., 71312., 0.1,148.2,100.0,0.,193057.00,  3228.40,  9702.93, 383.4,143.4, 346.71,  1.70,  2., -0.360
   666., 1282.,  6.32, -22.46,   0.18,  0.410, -0.223, -605., 44.49, 40.57, 46.67, 48.37,  -0.26, 2.8, 67828., 69334., 0.1,147.8, 99.9,0.,193057.00,  3228.40,  9702.93, 383.4,143.4, 346.71,  1.70,  2., -0.360
   672., 1248.,  6.32, -22.46,   0.18,  0.309, -0.640, -622., 44.49, 41.03, 46.67, 48.54,  -0.26, 2.7, 68338., 77245., 0.1,148.2,100.0,0.,193057.00,  3228.40,  9702.93, 383.4,143.4, 346.71,  1.70,  2., -0.360
   666., 1265.,  6.32, -22.46,   0.05,  0.410, -0.223, -611., 44.13, 40.57, 46.67, 48.54,  -0.26, 2.8, 63498., 82081., 0.1,148.2,100.0,0.,193057.00,  3228.40,  9702.93, 383.4,143.4, 346.71,  1.70,  2., -0.360
   672., 1248.,  6.32, -22.81,   0.05,  0.105, -0.223, -587., 44.01, 41.03, 46.67, 48.54,  -0.26, 2.7, 54837., 84278., 0.1,146.7,100.2,0.,193057.00,  3228.40,  9702.93, 383.4,143.4, 346.71,  1.70,  2., -0.360
   666., 1282.,  6.45, -22.46,  -0.08,  0.410,  0.194, -557., 43.41, 40.57, 46.67, 48.54,  -0.48, 2.7, 59932., 87355., 0.1,147.4, 99.9,0.,193057.00,  3228.40,  9702.93, 383.4,143.4, 346.71,  1.70,  2., -0.360
   672., 1248.,  6.45, -22.46,  -0.08,  0.207, -0.015, -527., 43.41, 41.03, 46.54, 48.54,  -0.26, 2.7, 61205., 86916., 0.1,147.0,100.0,0.,193057.00,  3228.40,  9702.93, 383.4,143.4, 346.71,  1.70,  2., -0.360
   666., 1248.,  6.58, -22.46,  -0.08,  0.410,  0.611, -503., 43.05, 40.73, 46.67, 48.54,  -0.48, 2.7, 64772., 79443., 0.1,147.4, 99.9,0.,193057.00,  3228.40,  9702.93, 383.4,143.4, 346.71,  1.70,  2., -0.360
   672., 1248.,  6.45, -22.81,  -0.08,  0.410,  0.402, -485., 43.29, 41.03, 46.54, 48.54,  -0.26, 2.7, 67319., 82520., 0.1,146.7, 99.9,0.,193057.00,  3228.40,  9702.93, 383.4,143.4, 346.71,  1.70,  2., -0.360
   666., 1248.,  6.58, -22.81,  -0.08,  0.614,  0.194, -473., 43.05, 40.73, 46.67, 48.54,  -0.48, 2.8, 66045., 80542., 0.1,147.4, 99.6,0.,193057.00,  3228.40,  9702.93, 383.4,143.4, 346.71,  1.70,  2., -0.360
   672., 1248.,  6.58, -22.46,  -0.08,  0.410,  0.402, -455., 43.29, 41.03, 46.54, 48.37,  -0.26, 2.7, 62988., 82520., 0.1,146.7, 99.6,0.,193057.00,  3228.40,  9702.93, 383.4,143.4, 346.71,  1.70,  2., -0.360
   669., 1248.,  6.71, -22.46,  -0.21,  0.512,  0.402, -438., 43.05, 40.73, 46.80, 48.54,  -0.48, 2.8, 65281., 83619., 0.1,147.4, 99.3,0.,193057.00,  3228.40,  9702.93, 383.4,143.4, 346.71,  1.70,  2., -0.360
   672., 1248.,  6.71, -22.46,  -0.21,  0.309,  0.402, -426., 43.17, 40.88, 46.54, 48.37,  -0.26, 2.7, 62224., 81201., 0.1,146.7, 99.3,0.,193057.00,  3228.40,  9702.93, 383.4,143.4, 346.71,  1.70,  2., -0.360
   666., 1231.,  6.71, -22.46,  -0.21,  0.512, -0.015, -426., 42.69, 40.73, 46.67, 48.54,  -0.48, 2.8, 70376., 80322., 0.1,147.4, 99.0,0.,193057.00,  3228.40,  9702.93, 383.4,143.4, 346.71,  1.70,  2., -0.360
   672., 1248.,  6.71, -22.46,  -0.21,  0.410,  0.402, -426., 42.69, 40.88, 46.54, 48.37,  -0.26, 2.7, 69866., 77465., 0.1,146.7, 99.0,0.,193058.00,  3228.44,  9702.94, 381.7,144.3, 346.89,  1.70,  2., -1.728
   666., 1231.,  6.84, -22.81,  -0.21,  0.512, -0.223, -426., 42.32, 40.73, 46.80, 48.54,  -0.48, 2.8, 70885., 76147., 0.0,147.4, 98.9,0.,193058.00,  3228.44,  9702.94, 381.7,144.3, 346.89,  1.70,  2., -1.728
   672., 1248.,  6.84, -22.81,  -0.21,  0.410, -0.223, -426., 42.44, 40.73, 46.54, 48.37,  -0.26, 2.7, 71650., 76586., 0.1,146.7, 98.7,0.,193058.00,  3228.44,  9702.94, 381.7,144.3, 346.89,  1.70,  2., -1.728
   666., 1231.,  6.84, -22.81,  -0.21,  0.512, -0.431, -426., 42.20, 40.73, 46.80, 48.54,  -0.48, 2.7, 66810., 79663., 0.0,148.2, 98.6,0.,193058.00,  3228.44,  9702.94, 381.7,144.3, 346.89,  1.70,  2., -1.728
   672., 1248.,  6.84, -22.81,  -0.34,  0.309, -0.431, -432., 42.32, 40.73, 46.54, 48.37,  -0.26, 2.7, 63753., 78564., 0.1,147.0, 98.6,0.,193058.00,  3228.44,  9702.94, 381.7,144.3, 346.89,  1.70,  2., -1.728
   666., 1231.,  6.97, -22.81,  -0.34,  0.512, -0.640, -444., 41.84, 40.73, 46.80, 48.54,  -0.48, 2.8, 61969., 81861., 0.0,148.2, 98.3,0.,193058.00,  3228.44,  9702.94, 381.7,144.3, 346.89,  1.70,  2., -1.728
   669., 1248.,  6.84, -22.81,  -0.48,  0.410, -0.431, -455., 41.84, 40.73, 46.54, 48.20,  -0.26, 2.7, 63753., 79883., 0.1,147.0, 98.3,0.,193058.00,  3228.44,  9702.94, 381.7,144.3, 346.89,  1.70,  2., -1.728
   666., 1213.,  6.97, -22.81,  -0.48,  0.614, -0.848, -461., 41.48, 40.73, 46.80, 48.54,  -0.48, 2.8, 60696., 79663., 0.0,147.8, 98.2,0.,193058.00,  3228.44,  9702.94, 381.7,144.3, 346.89,  1.70,  2., -1.728
   672., 1248.,  6.97, -22.81,  -0.61,  0.512, -0.640, -473., 41.60, 40.73, 46.54, 48.37,  -0.26, 2.7, 65536., 75927., 0.1,147.4, 98.2,0.,193058.00,  3228.44,  9702.94, 381.7,144.3, 346.89,  1.70,  2., -1.728
   666., 1213.,  7.09, -22.81,  -0.61,  0.715, -0.848, -491., 41.48, 40.73, 46.80, 48.54,  -0.48, 2.8, 61205., 77245., 0.0,148.6, 98.0,0.,193058.00,  3228.44,  9702.94, 381.7,144.3, 346.89,  1.70,  2., -1.728
   666., 1265.,  7.09, -22.81,  -0.74,  0.614, -0.640, -503., 41.48, 40.57, 46.67, 48.37,  -0.26, 2.7, 65536., 76806., 0.1,147.8, 98.0,0.,193058.00,  3228.44,  9702.94, 381.7,144.3, 346.89,  1.70,  2., -1.728
   664., 1213.,  7.22, -23.16,  -0.74,  0.817, -0.640, -521., 41.48, 40.73, 46.80, 48.54,  -0.48, 2.8, 60696., 76586., 0.0,148.6, 98.0,0.,193058.00,  3228.44,  9702.94, 381.7,144.3, 346.89,  1.70,  2., -1.728
   666., 1265.,  7.22, -22.81,  -0.87,  0.715, -0.848, -533., 41.48, 40.57, 46.67, 48.37,  -0.26, 2.7, 59422., 78125., 0.1,148.2, 97.9,0.,193058.00,  3228.44,  9702.94, 381.7,144.3, 346.89,  1.70,  2., -1.728
   664., 1213.,  7.22, -22.81,  -0.87,  0.817, -0.640, -569., 41.48, 40.73, 46.80, 48.71,  -0.48, 2.8, 53818., 78564., 0.0,149.7, 98.0,0.,193058.00,  3228.44,  9702.94, 381.7,144.3, 346.89,  1.70,  2., -1.728
   664., 1265.,  7.22, -22.81,  -1.00,  0.919, -0.223, -593., 41.60, 40.57, 46.67, 48.37,  -0.26, 2.7, 54072., 80762., 0.1,149.3, 98.0,0.,193058.00,  3228.44,  9702.94, 381.7,144.3, 346.89,  1.70,  2., -1.728
   664., 1213.,  7.35, -22.81,  -1.00,  0.919, -0.431, -616., 41.84, 40.73, 46.80, 48.71,  -0.48, 2.8, 58913., 79663., 0.0,150.1, 98.0,0.,193058.00,  3228.44,  9702.94, 381.7,144.3, 346.89,  1.70,  2., -1.728
   664., 1265.,  7.48, -22.81,  -1.13,  0.919, -0.015, -628., 41.96, 40.57, 46.67, 48.37,  -0.48, 2.8, 59422., 77245., 0.1,148.9, 98.0,0.,193058.00,  3228.44,  9702.94, 381.7,144.3, 346.89,  1.70,  2., -1.728
   661., 1213.,  7.48, -23.16,  -1.13,  0.817, -0.223, -628., 41.96, 40.73, 46.80, 48.71,  -0.48, 2.8, 67574., 74608., 0.0,149.3, 98.2,0.,193058.00,  3228.44,  9702.94, 381.7,144.3, 346.89,  1.70,  2., -1.728
   661., 1282.,  7.61, -22.81,  -1.13,  0.919,  0.194, -611., 41.84, 40.57, 46.67, 48.37,  -0.26, 2.7, 62988., 73729., 0.1,148.6, 98.2,0.,193058.00,  3228.44,  9702.94, 381.7,144.3, 346.89,  1.70,  2., -1.728
   664., 1213.,  7.61, -22.81,  -1.13,  0.919, -0.431, -581., 41.96, 40.88, 46.80, 48.71,  -0.48, 2.8, 66810., 74828., 0.1,148.6, 98.5,0.,193058.00,  3228.44,  9702.94, 381.7,144.3, 346.89,  1.70,  2., -1.728
   664., 1282.,  7.74, -22.81,  -1.26,  1.020, -0.015, -539., 41.84, 40.57, 46.67, 48.37,  -0.48, 2.7, 63498., 77465., 0.1,147.4, 98.3,0.,193058.00,  3228.44,  9702.94, 381.7,144.3, 346.89,  1.70,  2., -1.728
   664., 1231.,  7.74, -22.81,  -1.26,  0.817, -0.640, -497., 41.96, 40.88, 46.80, 48.88,  -0.26, 2.7, 59422., 82300., 0.1,148.6, 98.5,0.,193058.00,  3228.44,  9702.94, 381.7,144.3, 346.89,  1.70,  2., -1.728
   664., 1282.,  7.87, -22.81,  -1.26,  0.817, -0.223, -461., 41.72, 40.57, 46.67, 49.22,  -0.26, 2.8, 57384., 75707., 0.1,148.9, 98.5,0.,193059.00,  3228.48,  9702.95, 379.6,146.1, 346.75,  1.70,  2., -2.083
   666., 1231.,  7.87, -22.81,  -1.39,  0.817, -0.431, -455., 41.84, 40.88, 46.67, 49.91,  -0.48, 2.7, 57639., 76806., 0.1,150.1, 98.6,0.,193059.00,  3228.48,  9702.95, 379.6,146.1, 346.75,  1.70,  2., -2.083
   664., 1282.,  7.99, -22.81,  -1.39,  1.122,  0.611, -467., 41.72, 40.57, 46.67, 49.91,  -0.26, 2.8, 63753., 72191., 0.1,149.7, 98.5,0.,193059.00,  3228.48,  9702.95, 379.6,146.1, 346.75,  1.70,  2., -2.083
   664., 1231.,  7.99, -22.81,  -1.39,  1.122,  0.194, -485., 41.84, 40.88, 46.67, 50.08,  -0.48, 2.7, 58913., 75268., 0.1,150.1, 98.6,0.,193059.00,  3228.48,  9702.95, 379.6,146.1, 346.75,  1.70,  2., -2.083
   664., 1282.,  8.12, -22.81,  -1.39,  1.325,  0.819, -503., 41.72, 40.57, 46.67, 49.91,  -0.26, 2.7, 64772., 74169., 0.1,149.3, 98.6,0.,193059.00,  3228.48,  9702.95, 379.6,146.1, 346.75,  1.70,  2., -2.083
   666., 1231.,  8.12, -22.46,  -1.39,  1.224,  0.819, -515., 42.08, 41.03, 46.67, 49.91,  -0.26, 2.7, 61205., 73949., 0.1,149.7, 98.7,0.,193059.00,  3228.48,  9702.95, 379.6,146.1, 346.75,  1.70,  2., -2.083
   661., 1265.,  8.25, -22.46,  -1.39,  1.224,  1.027, -515., 42.32, 40.57, 46.67, 49.56,  -0.26, 2.7, 65026., 70872., 0.1,149.7, 98.7,0.,193059.00,  3228.48,  9702.95, 379.6,146.1, 346.75,  1.70,  2., -2.083
   664., 1231.,  8.25, -22.81,  -1.26,  0.817,  1.027, -515., 42.93, 40.88, 46.54, 49.56,  -0.26, 2.7, 66300., 68015., 0.1,150.1, 98.9,0.,193059.00,  3228.48,  9702.95, 379.6,146.1, 346.75,  1.70,  2., -2.083
   661., 1282.,  8.38, -22.46,  -1.26,  0.715,  0.819, -515., 42.93, 40.57, 46.67, 49.22,  -0.26, 2.7, 67574., 70872., 0.1,150.4, 98.7,0.,193059.00,  3228.48,  9702.95, 379.6,146.1, 346.75,  1.70,  2., -2.083
   666., 1231.,  8.38, -22.46,  -1.26,  0.309,  0.819, -503., 43.17, 41.03, 46.54, 49.39,  -0.26, 2.7, 66810., 66477., 0.1,150.1, 99.0,0.,193059.00,  3228.48,  9702.95, 379.6,146.1, 346.75,  1.70,  2., -2.083
   661., 1265.,  8.38, -22.46,  -1.26,  0.207,  0.611, -485., 42.93, 40.57, 46.67, 49.22,  -0.48, 2.7, 68593., 74169., 0.1,150.1, 98.9,0.,193059.00,  3228.48,  9702.95, 379.6,146.1, 346.75,  1.70,  2., -2.083
   666., 1231.,  8.38, -22.46,  -1.26, -0.098,  0.819, -449., 43.29, 41.03, 46.54, 49.22,  -0.26, 2.7, 70885., 67795., 0.1,149.7, 99.2,0.,193059.00,  3228.48,  9702.95, 379.6,146.1, 346.75,  1.70,  2., -2.083
   661., 1265.,  8.51, -22.81,  -1.26,  0.004,  0.819, -414., 43.05, 40.73, 46.67, 49.22,  -0.48, 2.7, 66300., 69334., 0.1,149.7, 99.0,0.,193059.00,  3228.48,  9702.95, 379.6,146.1, 346.75,  1.70,  2., -2.083
   666., 1231.,  8.38, -22.46,  -1.26, -0.200,  0.611, -366., 43.29, 41.03, 46.54, 49.22,  -0.26, 2.7, 72159., 71971., 0.1,148.9, 99.2,0.,193059.00,  3228.48,  9702.95, 379.6,146.1, 346.75,  1.70,  2., -2.083
   661., 1265.,  8.38, -22.81,  -1.26,  0.004,  1.027, -318., 43.05, 40.57, 46.67, 49.22,  -0.48, 2.7, 68847., 69773., 0.1,149.3, 99.2,0.,193059.00,  3228.48,  9702.95, 379.6,146.1, 346.75,  1.70,  2., -2.083
   666., 1231.,  8.38, -22.81,  -1.26, -0.200,  0.819, -282., 43.17, 41.03, 46.54, 49.05,  -0.48, 2.7, 62479., 74608., 0.1,149.7, 99.3,0.,193059.00,  3228.48,  9702.95, 379.6,146.1, 346.75,  1.70,  2., -2.083
   664., 1248.,  8.38, -22.81,  -1.26,  0.004,  1.027, -253., 42.69, 40.73, 46.67, 49.22,  -0.48, 2.7, 61715., 72410., 0.1,150.1, 99.2,0.,193059.00,  3228.48,  9702.95, 379.6,146.1, 346.75,  1.70,  2., -2.083
   669., 1231.,  8.25, -22.81,  -1.13, -0.200,  0.819, -241., 43.05, 41.03, 46.54, 49.22,  -0.48, 2.7, 53818., 81641., 0.1,150.4, 99.3,0.,193059.00,  3228.48,  9702.95, 379.6,146.1, 346.75,  1.70,  2., -2.083
   664., 1248.,  8.25, -22.81,  -1.26,  0.004,  1.444, -235., 42.69, 40.73, 46.67, 49.22,  -0.48, 2.7, 57639., 79223., 0.1,151.2, 99.3,0.,193059.00,  3228.48,  9702.95, 379.6,146.1, 346.75,  1.70,  2., -2.083
   669., 1231.,  8.25, -22.81,  -1.13, -0.098,  1.444, -235., 43.05, 41.03, 46.54, 49.05,  -0.48, 2.7, 58913., 79223., 0.1,150.4, 99.5,0.,193059.00,  3228.48,  9702.95, 379.6,146.1, 346.75,  1.70,  2., -2.083
   666., 1231.,  8.25, -22.81,  -1.13,  0.105,  1.236, -235., 42.69, 40.73, 46.67, 49.22,  -0.48, 2.7, 61205., 71751., 0.0,151.2, 99.5,0.,193059.00,  3228.48,  9702.95, 379.6,146.1, 346.75,  1.70,  2., -2.083
   669., 1231.,  8.12, -22.81,  -1.13,  0.004,  1.027, -241., 42.69, 41.03, 46.54, 49.05,  -0.26, 2.7, 67574., 71751., 0.1,150.8, 99.6,0.,193059.00,  3228.48,  9702.95, 379.6,146.1, 346.75,  1.70,  2., -2.083
   664., 1213.,  8.25, -22.81,  -1.13,  0.309,  0.819, -259., 42.20, 41.03, 46.67, 49.22,  -0.48, 2.7, 64007., 72850., 0.0,151.9, 99.5,0.,193100.00,  3228.52,  9702.96, 379.0,146.7, 346.40,  1.70,  2., -0.015
   666., 1231.,  8.25, -22.81,  -1.00,  0.105,  0.819, -265., 42.20, 41.19, 46.54, 49.05,  -0.48, 2.7, 65281., 72191., 0.1,151.6, 99.6,0.,193100.00,  3228.52,  9702.96, 379.0,146.7, 346.40,  1.70,  2., -0.015
   664., 1213.,  8.25, -22.81,  -1.00,  0.309,  0.402, -271., 41.72, 41.65, 46.67, 49.22,  -0.48, 2.7, 61715., 77905., 0.0,152.3, 99.6,0.,193100.00,  3228.52,  9702.96, 379.0,146.7, 346.40,  1.70,  2., -0.015
   669., 1248.,  8.25, -22.81,  -1.00,  0.105,  0.611, -277., 41.84, 41.65, 46.54, 49.05,  -0.26, 2.7, 61205., 77465., 0.1,151.6, 99.6,0.,193100.00,  3228.52,  9702.96, 379.0,146.7, 346.40,  1.70,  2., -0.015
   666., 1213.,  8.25, -23.16,  -1.00,  0.410,  0.402, -277., 41.60, 41.80, 46.67, 49.22,  -0.48, 2.7, 63243., 79223., 0.0,152.3, 99.6,0.,193100.00,  3228.52,  9702.96, 379.0,146.7, 346.40,  1.70,  2., -0.015
   666., 1248.,  8.25, -22.81,  -1.00,  0.309,  0.194, -247., 41.72, 41.95, 46.54, 49.05,  -0.48, 2.7, 61460., 80103., 0.1,150.8, 99.7,0.,193100.00,  3228.52,  9702.96, 379.0,146.7, 346.40,  1.70,  2., -0.015
   661., 1213.,  8.25, -22.81,  -1.00,  0.410, -0.223, -211., 41.48, 42.26, 46.80, 49.22,  -0.48, 2.7, 65026., 79663., 0.0,151.6, 99.6,0.,193100.00,  3228.52,  9702.96, 379.0,146.7, 346.40,  1.70,  2., -0.015
   669., 1248.,  8.25, -22.81,  -1.13,  0.309,  0.402, -163., 41.48, 42.26, 46.54, 49.05,  -0.48, 2.7, 62224., 75927., 0.1,150.8, 99.6,0.,193100.00,  3228.52,  9702.96, 379.0,146.7, 346.40,  1.70,  2., -0.015
   666., 1213.,  8.38, -22.81,  -1.13,  0.410, -0.223, -110., 41.24, 42.41, 46.80, 49.22,  -0.48, 2.7, 66045., 80322., 0.0,151.6, 99.6,0.,193100.00,  3228.52,  9702.96, 379.0,146.7, 346.40,  1.70,  2., -0.015
   669., 1248.,  8.38, -22.81,  -1.13,  0.410,  0.611,  -62., 41.36, 42.41, 46.54, 49.05,  -0.26, 2.7, 64007., 78125., 0.1,150.8, 99.6,0.,193100.00,  3228.52,  9702.96, 379.0,146.7, 346.40,  1.70,  2., -0.015
   666., 1213.,  8.38, -22.81,  -1.13,  0.614,  0.194,  -32., 41.24, 42.41, 46.80, 49.39,  -0.48, 2.7, 63753., 81421., 0.0,151.2, 99.6,0.,193100.00,  3228.52,  9702.96, 379.0,146.7, 346.40,  1.70,  2., -0.015
   669., 1265.,  8.51, -22.81,  -1.13,  0.614,  0.819,    4., 41.48, 42.26, 46.54, 49.05,  -0.26, 2.7, 62988., 84718., 0.1,150.8, 99.6,0.,193100.00,  3228.52,  9702.96, 379.0,146.7, 346.40,  1.70,  2., -0.015
   666., 1213.,  8.51, -22.81,  -1.13,  0.817,  0.402,   22., 41.48, 42.41, 46.80, 49.22,  -0.48, 2.7, 57639., 81861., 0.0,151.9, 99.5,0.,193100.00,  3228.52,  9702.96, 379.0,146.7, 346.40,  1.70,  2., -0.015
   669., 1248.,  8.64, -22.81,  -1.13,  0.715,  0.819,   40., 41.60, 42.26, 46.67, 49.05,  -0.26, 2.7, 59932., 80982., 0.1,151.6, 99.3,0.,193100.00,  3228.52,  9702.96, 379.0,146.7, 346.40,  1.70,  2., -0.015
   666., 1213.,  8.64, -22.81,  -1.13,  1.020,  0.611,   46., 41.60, 42.41, 46.80, 49.39,  -0.48, 2.7, 61205., 82740., 0.0,152.7, 99.2,0.,193100.00,  3228.52,  9702.96, 379.0,146.7, 346.40,  1.70,  2., -0.015
   666., 1265.,  8.77, -22.81,  -1.13,  0.919,  0.819,   52., 41.72, 42.26, 46.67, 49.05,  -0.48, 2.7, 65281., 79223., 0.1,151.6, 99.2,0.,193100.00,  3228.52,  9702.96, 379.0,146.7, 346.40,  1.70,  2., -0.015
   666., 1213.,  8.77, -22.46,  -1.00,  1.020,  0.611,   57., 41.72, 42.41, 46.80, 49.39,  -0.48, 2.7, 62734., 80982., 0.0,152.3, 99.0,0.,193100.00,  3228.52,  9702.96, 379.0,146.7, 346.40,  1.70,  2., -0.015
   666., 1265.,  8.89, -22.81,  -1.13,  1.020,  0.819,   69., 41.72, 41.49, 46.67, 49.05,  -0.26, 2.7, 65791., 80103., 0.1,151.6, 98.9,0.,193100.00,  3228.52,  9702.96, 379.0,146.7, 346.40,  1.70,  2., -0.015
   669., 1213.,  8.89, -22.81,  -1.00,  1.020,  0.819,   75., 41.84, 41.65, 46.80, 49.39,  -0.48, 2.7, 62988., 79443., 0.0,151.9, 98.9,0.,193100.00,  3228.52,  9702.96, 379.0,146.7, 346.40,  1.70,  2., -0.015
   666., 1265.,  9.02, -22.46,  -1.00,  0.919,  1.027,   99., 41.72, 41.34, 46.67, 49.05,  -0.26, 2.7, 67319., 82740., 0.1,151.2, 98.9,0.,193100.00,  3228.52,  9702.96, 379.0,146.7, 346.40,  1.70,  2., -0.015
   669., 1213.,  9.02, -22.46,  -1.00,  0.715,  0.819,  123., 41.84, 41.49, 46.80, 49.39,  -0.48, 2.7, 63753., 82740., 0.0,151.6, 98.7,0.,193100.00,  3228.52,  9702.96, 379.0,146.7, 346.40,  1.70,  2., -0.015
   666., 1282.,  9.02, -22.46,  -1.00,  0.715,  1.236,  159., 41.72, 40.57, 46.67, 49.22,  -0.26, 2.7, 62734., 84498., 0.1,150.8, 98.6,0.,193100.00,  3228.52,  9702.96, 379.0,146.7, 346.40,  1.70,  2., -0.015
   672., 1231.,  9.15, -22.46,  -0.87,  0.512,  1.236,  195., 41.84, 41.03, 46.80, 49.56,  -0.48, 2.7, 64262., 86696., 0.0,151.2, 98.6,0.,193101.00,  3228.56,  9702.97, 379.9,147.5, 345.98,  1.70,  1.,  0.916
   672., 1282.,  9.15, -22.11,  -0.87,  0.410,  1.861,  236., 41.72, 41.03, 46.67, 49.39,  -0.26, 2.7, 61205., 86916., 0.1,150.8, 98.5,0.,193101.00,  3228.56,  9702.97, 379.9,147.5, 345.98,  1.70,  1.,  0.916
   674., 1231.,  9.15, -22.46,  -0.74,  0.207,  1.444,  278., 41.84, 41.65, 46.80, 49.74,  -0.48, 2.7, 63498., 86256., 0.1,150.8, 98.5,0.,193101.00,  3228.56,  9702.97, 379.9,147.5, 345.98,  1.70,  1.,  0.916
   672., 1282.,  9.15, -22.11,  -0.74,  0.207,  2.069,  314., 41.72, 41.34, 46.67, 49.39,  -0.26, 2.7, 61205., 86916., 0.1,150.4, 98.2,0.,193101.00,  3228.56,  9702.97, 379.9,147.5, 345.98,  1.70,  1.,  0.916
   672., 1248.,  9.15, -22.11,  -0.74,  0.105,  1.861,  356., 41.96, 41.80, 46.67, 49.74,  -0.26, 2.7, 62479., 85597., 0.1,150.4, 98.3,0.,193101.00,  3228.56,  9702.97, 379.9,147.5, 345.98,  1.70,  1.,  0.916
   669., 1282.,  9.28, -22.11,  -0.61,  0.105,  2.277,  397., 41.72, 41.34, 46.67, 49.39,  -0.48, 2.7, 62224., 81641., 0.1,149.7, 98.0,0.,193101.00,  3228.56,  9702.97, 379.9,147.5, 345.98,  1.70,  1.,  0.916
   672., 1248.,  9.28, -21.76,  -0.48,  0.004,  2.069,  433., 41.96, 41.80, 46.67, 49.74,  -0.26, 2.7, 66045., 83399., 0.1,150.4, 98.0,0.,193101.00,  3228.56,  9702.97, 379.9,147.5, 345.98,  1.70,  1.,  0.916
   669., 1282.,  9.28, -22.11,  -0.48,  0.105,  2.694,  463., 41.72, 41.34, 46.67, 49.39,  -0.26, 2.7, 65281., 76366., 0.1,150.4, 97.7,0.,193101.00,  3228.56,  9702.97, 379.9,147.5, 345.98,  1.70,  1.,  0.916
   672., 1248.,  9.15, -22.11,  -0.34,  0.004,  2.277,  487., 42.08, 41.80, 46.54, 49.56,  -0.48, 2.7, 66810., 80542., 0.1,149.7, 97.9,0.,193101.00,  3228.56,  9702.97, 379.9,147.5, 345.98,  1.70,  1.,  0.916
   669., 1282.,  9.28, -21.76,  -0.34,  0.207,  2.694,  499., 41.84, 41.49, 46.67, 49.39,  -0.48, 2.7, 64262., 81641., 0.1,149.7, 97.7,0.,193101.00,  3228.56,  9702.97, 379.9,147.5, 345.98,  1.70,  1.,  0.916
   674., 1248.,  9.28, -21.76,  -0.21,  0.004,  2.486,  511., 42.20, 41.80, 46.54, 49.56,  -0.26, 2.7, 56875., 81641., 0.1,149.7, 97.7,0.,193101.00,  3228.56,  9702.97, 379.9,147.5, 345.98,  1.70,  1.,  0.916
   669., 1282.,  9.28, -21.76,  -0.08,  0.207,  2.694,  511., 41.96, 41.49, 46.67, 49.39,  -0.48, 2.7, 58148., 82520., 0.1,150.4, 97.6,0.,193101.00,  3228.56,  9702.97, 379.9,147.5, 345.98,  1.70,  1.,  0.916
   674., 1248.,  9.28, -21.76,   0.05,  0.004,  2.694,  499., 42.20, 41.80, 46.54, 49.39,  -0.26, 2.7, 58148., 80542., 0.1,150.8, 97.7,0.,193101.00,  3228.56,  9702.97, 379.9,147.5, 345.98,  1.70,  1.,  0.916
   669., 1265.,  9.28, -21.76,   0.18,  0.309,  2.694,  481., 42.08, 41.49, 46.67, 49.39,  -0.48, 2.7, 63753., 75048., 0.1,151.2, 97.6,0.,193101.00,  3228.56,  9702.97, 379.9,147.5, 345.98,  1.70,  1.,  0.916
   674., 1248.,  9.28, -22.11,   0.31,  0.105,  2.694,  451., 42.44, 41.80, 46.54, 49.56,  -0.26, 2.7, 64262., 72630., 0.1,151.2, 97.7,0.,193101.00,  3228.56,  9702.97, 379.9,147.5, 345.98,  1.70,  1.,  0.916
   672., 1265.,  9.28, -21.41,   0.44,  0.410,  2.486,  421., 42.32, 41.34, 46.67, 49.39,  -0.26, 2.7, 68338., 76366., 0.1,151.9, 97.6,0.,193101.00,  3228.56,  9702.97, 379.9,147.5, 345.98,  1.70,  1.,  0.916
   677., 1248.,  9.41, -21.76,   0.44,  0.207,  2.277,  391., 42.56, 41.03, 46.54, 49.39,  -0.26, 2.7, 59167., 73949., 0.1,151.6, 97.7,0.,193101.00,  3228.56,  9702.97, 379.9,147.5, 345.98,  1.70,  1.,  0.916
